Place,URL,Latitude,Longitude,Program,Number of Participants,Organizers        
"Aarhus, Denmark",http://openculturedays.dk,56.1566766,10.2002202,Hacklab,,"Open Data Aarhus, IBM and Rethink17"
"Abuja, Nigeria ",https://sites.google.com/site/opendatadayabuja/2015,9.056537,7.4825025,Skill Share on Data Pipeline Tools,30,Connected Development [CODE]
"Accra, Ghana",http://codeforghana.org,5.668192,-0.167249,"Hackathon, Talk, Training",~20,Mobile Web Ghana
"Aizu, Japan",http://aizu.io/,37.524629,139.939076,Datathon and Hackathon,~30,CODE for AIZU
"Aomori, Japan",http://www.pref.aomori.lg.jp/sangyo/energy/IODD2015aomori.html,40.784143,140.781402,Data Hackathon,,"Aomori-pref., Aomori-Univ."
"Asuncion, Paraguay",http://www.hacklabasu.org/event/presentacion-de-osm-paraguay/?instance_id=109,-25.28443,-57.62063,Las distintas formas de contribuir a OSM Paraguay,sin limite,OSM Paraguay
"Asuncion, Paraguay",http://www.meetup.com/Datos-Abiertos-Paraguay,-25.279655,-57.6087641,"Award ceremony, Datathon, Conference",100,SENATICs +TEDIC. (OKF-Py) + HackHackersAsunción.
"Atlanta, GA, USA",https://nvite.com/CodeAcross/b1aa,33.75,84.39,Hackathon,80,Code for Atlanta
"Atlanta, Georgia",https://nvite.com/codeacross/e7c8,33.75211,-84.392383,CodeAcross,90,Code for Atlanta
"Atsugi, Japan",http://www.opencorporates.jp/,35.443048,139.362442,Ideathon,100,Open Corporates Japan
"Auckland, New Zealand",http://www.opendataday.org.nz/,,174.764797,"Unconference, Hackathon",~30,New Zealand Herald
"Babol , Mazandaran ,Iran",http://www.pydata.ir,36.561966,52.680098,Open Discussion,,Cup inc.
"Bandar Seri Begawan, Brunei",http://www.meetup.com/BruneiGeekMeet/events/220555943/,4.887343,114.897814,Open discussion and hackathon,no limit,
"Bandung, Indonesia",http://wiki.opendataday.org/Bandung2015,-6.910805,107.609822,"Keynotes, Panel DIscussions, Focus Grup DIscussions, App Competition
",250-400,"The City of Bandung Government, Code for Bandung, West Java Branch of Indonesian Bank"
"Bangkok, Thailand",,13.75,100.466667,"Talks, workshops",~150,"Electronic Goverment Agency, Change Fusion, Ma:D, Good Factory"
"Bath, United Kingdom",http://www.meetup.com/Bath-Hacked/events/220251268/,51.382681,-2.35911,"Introduction to open data, light hacking and friendly chat",15-30,Bath:Hacked - www.bathhacked.org
Belgium,http://globplex.com/xbb/,50°55,05°20,Skype Demo,,Globplex.com
"Benin City, Edo State, Nigeria",https://www.eventbrite.com/e/opendata-day-hack-geekend-tickets-15571376406,6.3204719,5.6220717,Talk on Agriculture and Technology; opendata and innovation; Breif on data wrangling/data hack; Talk Pitching and presentation of Ideas; Hack! Hack! Hack!;,50,"SabiHub, a non-profit TechHub in Edo State, Nigeria. www.sabihub.com; Ministry of Agriculture, Edo State Open Data Team."
"Berlin, Germany",https://www.correctiv.org/opendata-day-bei-correctv-kommt-vorbei-am-21-februar/,52.516633,13.425358,Hackday,,The Berlin Open Knowledge community and CORRECT!V
Bharatpur Chitwan Nepal,http://tech.net.np/open-data-day/,27.68913,84.42819,"Open Data Mapping, Data Visualization, Open Source Philosophy Presentation",200+,"Foss Chitwan, Salyani, Kathmandu Living Labs, Chitwanix"
"Blacksburg, VA, USA",http://codeacross.eventbrite.com/,37.22957,-80.41394,"Roundtables, hackathon, OSM editathon",30,"Code for NRV, Virginia Tech Libraries"
"Bogotá, Colombia",http://www.geocensos.com,4.6773284,-74.0463635,*Unconference on Open and Geo Big Data topics *Video calls with other locations *Bootamp on Open Street Map and mapbox tools *Development of ideas in mini hackathon,more or less 25,GeoCensos Foundation
"Bogotá, Colombia",http://mutabit.com/dataweek/,,,"Workshop, Hackathon",10,mutabiT
"Boston, MA",www.eventbrite.com/e/codeacross-boston-2015-tickets-15442437747,42.3608,-71.0877,Unconference and hackathon in collaboration with MassIT,125,Code for Boston
"Brasília, DF (Brasil) / Brasilia / Brazil",http://wiki.opendataday.org/Brasilia2015,-15.82317,-47.92675,"Talks on public data, OpenStreetMap and hands-on workshop",~20,Calango Hacker Clube (Hackerspace) - http://calango.club
"Brisbane, Australia",http://australia.census.okfn.org,-27.4679,153.0278,Complete entries in Australia's Regional Open Data Census online. Collaborate on writing a guide for census submissions.,no limits,Australia's Regional Open Data Census
"Bucharest, Romania",http://datedeschise.ro/,44.447361,26.097464,"Conference (20th), two-days hackathon (21-22)",~100,Foundation for an open society (datedeschise.fundatia.ro) and Romanian Government (ogp.gov.ro)
"Buenos Aires, Argentina",http://wiki.opendataday.org/Buenos_Aires_Open_Data_Day_2015,-34.6054,-58.388645,,50,OKFN Argentina
"Cagliari, Italy",,39.23054,9.11917,"Presentaions, Talks, Workshops, hackathon",,Circolo dei Giuristi Telematici
"Cairo, Egypt",,30.0443116,31.238763,Hackathon,,Transport for Cairo (TfC)
"Calgary, Alberta",http://www.calgary.ca/hackathon,51.0486,-114.0708,Hackathon - 2016,150,City of Calgary and Calgary Regional Partnership
"Cambridge, UK",http://www.meetup.com/Makespace/events/220273179/,52.205,0.119,Open discussion and hackathon,10,"Jenny Molloy and Graham Steel, Open Knowledge Open Science Working Group"
"Canberra, Australia",https://github.com/DataShades/,-35.271265,149.133429,A sprint for CKAN SDKs,5,Link Digital
"Cape Town, South Africa",http://www.code4sa.org,-33.9766797,18.4656228,Data easter egg hunt,50,Code for South Africa
"Caracas, Venezuela",https://talpor.com/,10.443049,-66.875121,Open discussion and hackathon,~20,talPor Solutions
"Cartagena de Indias, Colombia",https://wiki.openstreetmap.org/wiki/Isla_de_leon,10.38817,-75.4625,"OSM Introduction, Isla de Leon problems, OSM workshop, Mapping party!",40,"Techo.org, Universidad de San Buenaventura, OSM Colombia Community"
"Cd. Obregón, Sonora, México",https://www.facebook.com/opendatacajeme ,27.52552,-109.934554,"Ideathon, Workshop",Sin Límite,"Municipio de Cajeme, Universidad La Salle Noroeste, Mawe Tecnologías"
"Chiba, Japan",https://www.facebook.com/events/507184042753853/?ref_dashboard_filter=hosting,35.652793,140.043699,"Workshops,
Ideathon",50,Open! Chiba
"Cluj-Napoca, Romania",http://odd15.datedeschise.ro/cluj,46.785644,23.606914,Short talks from people involved in OGP and open data movement(s) in the region. 24/24 hacking session all weekend.,100,"The Sponge Media Innovation Lab, Simplon Romania"
"Cochabamba, Bolivia",,-17.40007,-66.16565,"Unconference, talks, workshops, data journalism, osm editathon",~30,"HackLab Cochabamba, OpenStreetMap Cochabamba"
"Copenhagen, Valby",,,,,,
"Curitiba, Brazil",meetup.com/openbrazil,-25.451389,-49.251667,CodeAcross Brazil,50,Open Brazil (a Code For America brigade)
"Dakar, Senegal",http://sn.okfn.org/,14.696139,-17.462798,Open discussion and hackathon,50,Open Knowledge Sénégal
"Dar es Salaam, Tanzania",http://buni.or.tz/event/second-open-data-day-in-dar-es-salaam/?instance_id=256,6.8,39.2839,Open Data Day,16,Dar es Salaam Open Knowledge Community and Buni Hub
"Denton, TX, USA",https://www.library.unt.edu/events/open-data-hackathon-unt-0,33.2148412,-97.1330683,"Open Data Conference, Workshops and Hackathon",no limit,UNT Libraries (library.unt.edu)
"Dhaka, Bangladesh",https://www.facebook.com/events/638101336294270/,0,0,"Talks about Open data, Arrange Open Street map workshop, Encourage & arrange program at National Book Fair",50-100,Community of Open Knowledge Bangladesh 
"Donostia-San Sebastián, Spain",http://www.eventbrite.es/e/entradas-open-data-day-2015-15614331887?aff=es2,43.3217,-1.985,Donostia Open Data Hackathon 2015,~30,Deusto Tech
E,https://www.facebook.com/events/1414461902183838/?ref_newsfeed_story_type=regular,,,Twitter Forum,20,OpenNEO
"Edmonton, Alberta",http://www.epl.ca/odd2015,53.543202,-113.489606,Workshops and Hackathon,,Edmonton Public Library and the City of Edmonton
"Enugu, Nigeria",http://hub-10.com/opendatahack15,6.450753,7.492976,Open Data hackathon and seminar. An all day event.,50,"GDG Enugu, Hub 10, Startup Hub"
"Enugu, Nigeria",www.hub-10.com/opendatahack15,6.45615,7.51095,"Open Data Hackathon, Demo, GDG Study JAM. Focus on Open Data on Social Platforms.",45,Hub for Technology and Enterpreneurship (HUB10)
"Frankfurt, Germany",http://www.meetup.com/OKLabFfm/events/219670248/,50.12549,8.706824,Hackathon,,Code for Ffm
"Fukuoka, Japan",http://connpass.com/event/11813/,33.58878,130.390947,Hackathon,30,Code for Fukuoka
"Fukuoka2, Japan",http://www.icer.kyushu-u.ac.jp/OSMUnityWorkshop,33.595731,130.218494,Hackathon with OSM and UNITY,20,Code for Kyudai
"Fukuoka3, Japan",https://www.facebook.com/events/595878460514330/,33.591545,130.40365,Ideathon,15,"Bosai-basters, Rika-fan"
"Gifu,Japan",https://www.facebook.com/pages/CODE-for-GIFU/592157627504886?ref=bookmarks,,136.758673,"Workshops,
Ideathon",20,Code for Gifu
"Granada, Spain",http://osl.ugr.es/2015/01/26/open-data-day-2015/,37.178056,3.600833,Hackathon,,Granada University
"Granada, Spain",http://osl.ugr.es/2015/01/26/open-data-day-2015/,37.1930632,-3.5985088,Open Data Day 2015,40,OSLUGR Software Libre HQ at Grenada University
"Greenville, SC, USA",http://www.openupstate.org/home/2015/2/5/28,34.8508,-82.3985,"Collaborative Hack-a-thon with open data from anywhere (comics.org, openlibrary.org, civic data, etc).",no limits,OpenUpstate
"Guatemala, Guatemala",http://www.redciudadana.org/,14.627588,-90.537527,"Open Data Conference, Workshops and Promotion",no limit,Asociacion Civil Red Ciudadana
"Hachioji, Japan",http://everevo.com/event/19689,35.657524,139.337159,"Seminar, Ideathon",40,Code for Hachioji
"Hakodate, Hokkaido,
Japan",https://www.facebook.com/events/345931592281958/,41.841835,140.766998,"Hackathon,
Ideathon,
Speech",~40,Code for DONAN
"Hamburg, Germany",http://www.meetup.com/OK-Lab-Hamburg/events/220599738/,53.547618,9.979957,Hackday,,German Open Knowledge community and Wikipedia
"Helsinki, Finland",http://www.forumvirium.fi/en/event/open-data-day-helsinki-hackathon,60.1708,24.9375,"Short talks about Open Data and Open Development.
Intro to Open Data available in the Helsinki region, showcasing what developers have built using that data and afternoon hacking.
",60,"Forum Virium Helsinki, Microsoft, Open Knowledge Foundation Finland, HSL, Futurice, API:Suomi, Codento, Reaktor, Digile, City of Helsinki and 6Aika"
"Helsinki, Finland",http://forumvirium.fi/en/event/open-data-day-helsinki-hackathon,60.192059,24.945831,Open Data hackathon and seminar. An all day event.,65-70,"Forum Virium Helsinki and numerous partners, check the the link for the compherensive list of organizers"
"Honolulu, HI, USA",http://unconferenz.com/,21.306944,-157.858333,"Unconference, hackathon, workshops",200,"Code for Hawaii, Hawaii Open Data"
"Hyogo, Japan",http://codeforkobe-3.peatix.com/,34.691487,135.183214,Ideathon,30,CodeforHyogo
"Ikoma, Japan",http://code4ikoma.org/?q=events,34.691938,135.700537,Keynote and Ideathon,-40,"Ikoma city, CODE for IKOMA"
"Inagi, Japan",http://area.walkerplus.com/walker47/article/detail/ar0313225/le2473/19700101/2_201502152058101976/,35.63796,139.50427,Workshop,,Open Data Cafe@Inagi
"India, Hyderabad",http://swecha.org,17.436005,78.360345,Datathon and Hackathon,~50,Swecha-Free Software Movement of India
Isle of Man,http://codeclub.im/2015/02/saturday-21st-feb-open-data-day/,54.152,-4.482,"Open Data, Visualisation Tools",45,Isle of Man Code Club
"İstanbul, Turkey",http://www.verigazeteciligi.com/,39.1667,35.6667,"Open data, Data Journalism, Workshop, Seminer",20,Dağ Medya
"Iwaki, Japan",,37.05042,140.887682,,,CODE FOR IWAKI
"JAIPUR,RAJASTHAN,INIDA",htt://fossyatra.wordpress.com,26.926,74,Datathon and Hackathon,100,fossyatra
"Jakarta, Indonesia",wiki.opendataday.org/Jakarta2015,-6.1744444,106.8294444,Overpass-Turbo and OpenRefine training,14,Open Data Lab Jakarta and OpenStreetMap Indonesia
"Jena, Germany",http://www.meetup.com/OK-Lab-Jena/events/219980964/,50.922541,11.574783,Hackday,,Code for Jena
"Jersey City, NJ",http://codeforjc.org/PATHDataJam/,40.726684,-74.071289,PATH Data Jam,100,"CodeForJC, CodeForNewark"
"Kagoshima, Japan",http://kagolug.org/,31.5840447,130.5415705,"OSM mapping party
",~15,Kagoshima Linux User Group
"Kakegawa, Japan",http://opendata.shizuoka.jp/,34.7767997,138.0145688,"Keynote, Hackathon(Refuge, Traffic)",,Council of Shizuoka Open Data
"Kampala, Uganda",http://wiki.opendataday.org/Kampala2015,0.29205,32.6173,"Policy talk, Ideation, Ebola open data jam",50 - 100,"Outbox, Mountbatten, Development and training initiatives (DRT)"
"Kanazawa, Japan",http://www.codeforkanazawa.org/,36.575029,136.646853,"Keynote,  Ideason",60,Code for Kanazawa
"Karlshamn, Sweden",https://www.facebook.com/events/545971235506156/,56.164528,14.865972,Hackathon,~30,NetPort Science Park AB
"Karlshamn, Sweden",https://www.facebook.com/events/545971235506156,56.164773,14.866041,"Hackathon, Workshops",~50,NetPort Science Park
"Karlsruhe, Germany",http://www.meetup.com/OK-Lab-Karlsruhe/events/220301385/,49.006968,8.407482,"Talk program, Workshops",,Code for Karlsruhe
"Kashiwa, Japan",,35.867612,139.97585,,25,Code for Kashiwa
"Kathmandu, Nepal",http://opennepal.net/odd2015,27.712138,85.342559,"Hackathon, Talk program, Product Showcase, Mappathon",500,"Kathmandu Living Labs, Open Nepal, YoungInnovations "
"Kathmandu, Nepal","http://np.okfn.org/2015/02/16/opendataday2015/
",27.725443,85.3284831,"Presentation Session, Spending Data Party, CKAN Localization, Data Scrapathon, MakerFest, Editathon, Community Discussion",100,"Open Knowledge Nepal, FOSS Nepal Community, Mozilla Nepal, Wikimedia Nepal"
"Kawasaki-Miyamae, Japan",https://www.ourfutures.net/sessions/942,35.58936,139.578481,Marke-thon,100,G-Future Design
"Kawasaki,Japan",http://openkawasaki.connpass.com/event/11287/,35.533821,139.729236,Kawasaki Daishi Mapping and trash picking to clean the town,~50,Open Kawasaki / Code for Kawasaki / green bird kawasaki team
"Kendua, Bangladesh",https://www.facebook.com/groups/152627941462625/,24.67,90.8138,Remote Mapping,6,OSM BD Volunteers
"Khujand, Tajikistan",opendata.tj,38.577295,68.789134,"Keynote, Workshop, Hackathon",~ 80,ICT4D.TJ | OpenData.TJ
"Kimberley, South Africa",https://www.eventbrite.com/e/skahack-2016-tickets-20035511755,-28.728238,24.749911,SKA Hackathon,120,Northern Cape Provincial Government and Geekulcha
"Kimotsuki,           Kagoshima,Japan",https://www.facebook.com/events/403274543167370/,31.353658,130.938626,"Keynote, Workshops
",,Kimotsuki Center for ICT Promotion
"Kingston, Jamaica",http://developingcaribbean.org,18.00805,-76.74704,"Data extraction and visualization workshop; Datathon with environmental impact data, budget data and sports data",~20,Mona School of Business & Management / DevCA2015
"Kisumu, Kenya",http://www.opendataday.co.ke,-0.1022100,34.7617100,"Keynote,Hackathon, Lightning talks,Roundtables",,Open Institute
"Kitakyushu, Japan",https://www.facebook.com/events/530448260429701/,33.888003,130.885774,Workshop,20,Code for Kitakyushu
"Kolkata, India",http://in.okfn.org/2015/02/15/india-open-data-summit/,22.5667,88.3667,"Open Knowledge India is organizing the India Open Data Summit on February 28, 2015. This year's event is free for anyone to attend. There will be talks and workshops relating to Open Data and Information, Open Science and Research and Open Education. The thrust this year will be on creating a sustainable and viable citizen driven, crowd sourced environment for Open Data.",~200,Open Knowledge India
"Köln, Germany",http://www.meetup.com/OKLab-Koln-Meetup/events/220297556/,50.922183,6.963018,Workshop,,Code for Köln und die Stadt Köln
"Koriyama, Japan",https://codeforkoriyama.doorkeeper.jp/events/20212,37.394336,140.391151,Location game programming hands on,40,code for KORIYAMA
"Kosai, Japan",https://csod.doorkeeper.jp/events/20570,34.717702,137.545324,"Seminar, Workshop",30,Open Data Hamanako
"Kyiv, Ukraine",http://www.cityscale.com.ua/open_data_mine.htm,50.4511,30.5223,"Open Data Mining, 
Open Data Related Coding and other.",no limit,CityScale.com.ua
"Kyoto, Japan",https://crd.ndl.go.jp/jp/library/forum_11.html,34.743233,135.772004,Conference,,Kyoto NDL
"Kyoto, Japan",,35.019672,135.786771,wikipediaTOWN & OSM mapping party,50,Kyoto opendata practice group
"La Paz, Bolivia ",http://adsib.gob.bo/adsibnueva/noticiacompleta.php?codigo_noticia=Vm0wd2VFMUdiRmhTV0d4V1YwZG9XRmx0ZEhkVU1WcDFZMFprVm1KR2NIbFdWM1JMVlVaV1ZVMUVhejA9,-16.5,-68.14,Seminario: Información Pública y Datos Abiertos ,Sin limite,ADSIB / Vicepresidencia del Estado
"La Paz, Bolvia ",http://oddboliva.acm-sim.org/,-16.51336,-68.12451,"Keynote, Hackathon",~ 20,ACM-SIM
"Leipzig, Germany",http://www.meetup.com/OK-Lab-Leipzig/events/219945116/,51.342121,12.366846,Ideathon,,Code for Leipzig
"Lima, Peru",,-12.0433,-77.0867516,"Talks, workshops and hackathon",40 +,"ODPE, HHLima"
London,http://attending.io/events/open-data-day-london-2015,51.5286727,-0.1166924,Datathon and Hackathon,~80,Open Knowledge England (Rufus Pollock)
"Louisville, KY",http://www.meetup.com/Louisville-Civic-Data-Alliance/events/219829803/,38.25,-85.766667,Opening GIS building and address data for Open Street Map and the visually impared,50,"Civic Data Alliance, CfA Louisville. http://www.civicdataalliance.org/"
"Madrid, Spain",http://hackaton.okfn.es,40.410873,-3.693565,Hackathon Open Data,40,OKFN Spain + Medialab-Prado
"Madrid, Spain",http://premio.okfn.es,40.435101,-3.683164,Award ceremony,70,Open Knowledge Spain
"Maebashi, Japan",https://www.facebook.com/opendatamaebashi,36.389395,139.063443,"Workshops, Ideathon",~30,Opendata Maebashi
"Magdeburg, Germany",http://www.meetup.com/OK-Lab-Magdeburg/events/219980238/,52.119443,11.629405,Hackathon,,Code for Magdeburg
"Manila,Philippines",,13,122,Workshop and talks,~30,"Community ""Open Knowledge Philippines"" "
"Mannheim, Germany",http://oddrnh15.eu/,49.495457,8.457521,Hacktogether,,Open Data Rhein-Neckar
"Matera, Italia",http://dati.comune.matera.it/blog/?p=94,40.66692,16.60656,"Hackathon, Talk program, Product Showcase, Mappathon, GTFS Maker Tools presentation",100,Open Data Matera - Municipality Office
"Matsuyama, Japan",https://www.facebook.com/events/1618255658395764/,33.850238,132.771509,Workshop,,Code for DOGO preparatory committee
"Medellín, Colombia",,6.217,-75.567,"Presentations, talks,workshop,editathom",40-50,Fundación Gobierno Abierto Colombia
"Melbourne, Australia",http://www.codeforaustralia.org,-37.8136,144.9631,Workshop,50,Code for Australia
Mexico City,,19.412084,-99.180576,Data Expedition,60,"Centraal
Google Dev
Codeando Mexico
SocialTic
BordePolitico"
"Mikkeli, Finland",https://www.facebook.com/events/354777841391913/,61.683333,27.266667,Open data get together and workshop,10,Mikkeli University of Applied Sciences
"Minneapolis, MN",http://www.hennepin.us/geocode,44.9804761,-93.2710771,Government Hosted Code-a-thon and Service Design Jam,~100,"Hennepin County, Open Twin Cities"
"Minsk, Belarus",http://day15.opendata.by/,53.9,27.566667,"Presentations, talks",~30,"Community ""Open Data Belarus"" (opendata.by)"
"Mississauga, Ontario, Canada",http://www.codeandthecity.ca,43.59108,-79.64699,"Idea Jam, Open Workshops, Marketplace",~75,"City of Mississauga, Sheridan College, I-CUBE UTM"
"Mito, Japan",http://codeforibaraki.org/,36.401221,140.44271,"Workshop, Datathon and Ideathon",~30,Code for Ibaraki
"Modena, Italy",,,,,,
"Mombasa, Kenya",http://www.opendataday.co.ke,-4.0546600,39.6635900,"Keynote,Hackathon, Lightning talks,Roundtables",,Open Institute
"Monastir, Tunisia",http://CLibre.tn,35.773195,10.833833,"Presentation, Talk, Workshop",~100,Association pour la Culture numérique Libre - CLibre & Municipalité de Monastir
"Montréal, Québec, Canada","http://wiki.opendataday.org/MONTREAL2015
",45.504629,-73.55686,Open discussion and hackathon,100,"OKFNca, MTL_Data, Hackons la corruption, FACiL, NordOuvert et autres"
"Moscow, Russia",https://infoculture.timepad.ru/event/181175/,55.75568,37.638719,"Meetup, Hackathon",~30-50,"<a href=""http://infoculture.ru"">Infoculture</a> and <a href=""http://ru.okfn.org"">OKF Russia</a>"
"München, Germany",http://www.meetup.com/OK-Lab-Munchen/events/219873019/,48.143555,11.557868,Hackathon,,Code for München und die Stadt München
"Münster, Germany",http://codeformuenster.org/,51.966667,7.633333,"Presentation, Workshop, Hacking",,OK Lab Münster
"Nagano, Japan",http://geeklab-nagano.com,36.649238,138.182391,"Ideathon,hackathon",,Geeklab.Nagano
"Nagareyama, Japan",https://www.facebook.com/events/904059792971920/,35.871309,139.926387,Wikipedia Town,,Code for NAGAREYAMA
"Nagatacho, Japan",http://lab.kn.ndl.go.jp/cms/?q=opendata2015,35.678396,139.744218,Ideathon,32,National Diet Library
"Nagoya, Japan",http://opendata-nagoya2015.peatix.com/,35.15488,136.96693,Hackathon using open data of public transit,~100,"OpenData Tokai/Code for Tokai, Code for Nagoya, NPO Lisra"
"Nairobi, Kenya",http://www.opendataday.co.ke,-1.2833300,36.8166700,"Keynote,Hackathon, Lightning talks,Roundtables",,Open Institute
"Nantes, France",http://www.eventbrite.fr/e/billets-journee-internationale-de-lopen-data-15638182224,47.211936,-1.551064,Extract civic data and scrap to release new citizen open data platform,30,Libertic
"Nanto, Japan",http://heyevent.com/event/859231910777650/international-open-data-day-2015-in,36.512208,136.900443,"Seminar, Workshop",,Code for Nanto
"Nara, Japan",https://code4nara.doorkeeper.jp/events/20396,34.676041,135.831529,Workshop,30,Code for Nara
"New York City, NY",https://codeacrossnyc2015.eventbrite.com,40.47,-73.58,"workshops, unconfernce, hackathon, scrapeathon",150,BetaNYC
"Niagara, Ontario, Canada",https://www.eventbrite.ca/e/open-data-day-2015-niagara-edition-tickets-15829637873,43.156991,-79.245088,Open Data Day Data Hackathon,30,"Cowork Niagara, Software Niagara"
"Niigata, Japan",https://www.facebook.com/dgata2015,37.913535,139.05817,Conference,15,Da-Gata 2015 executive committee
"Nørrebro, Copenhagen, Denmark",http://wiki.opendataday.org/wiki/index.php?title=COPENHAGEN2015,55.68863,12.56184,"da:
Kortlægning af de danske “åben”-miljøer
Dataworkshop med crowdsourcet folketingskandidat-data som omdrejningspunkt.

en:
Mapping of the Danish ""open""-communities
Dataworkshop with a focus on crowdsourced general election candidate data",30,"Open Knowledge Denmark, Wikimedia Denmark and Nordic Open Data Ecosystem (OpenNordics.org)"
"Numadu, Japan",http://opendata.shizuoka.jp/,35.105744,138.862329,"Keynote, Hackathon(Disaster, Traffic, Sightseeing)",,"Shizuoka East IT Council, Council of Shizuoka Open Data"
"Oita, Japan",https://www.facebook.com/groups/codeforoita/,33.241007,131.598979,Mapping party,,Code for Oita
"Osaka, Japan",http://www.innovation-osaka.jp/ja/,34.705876,135.494467,Datathon and Hackathon,30,"Osaka Innovation Hub, ODI Osaka"
"Østerbro, Copenhagen, Denmark",http://wiki.opendataday.org/wiki/index.php?title=COPENHAGEN2015,55.69354,12.5659,"http://www.microformats.dk/2015/02/16/opvarmning-til-open-data-day-med-en-omgang-high-impack-datamotion/ We kick off the day with round of “high impact data excercise” 11:30am-2pm @ http://www.openstreetmap.org/?mlat=55.69354&mlon=12.56590#map=17/55.69354/12.56590 intersection of Tagensvej/Blegdamsvej]
",30,http://microformats.dk microformats.dk aka. @neogeografen
"Ottawa, Ontario",http://www.meetup.com/Open-Data-Ottawa/events/220351571/,45.4202788,-75.7018615,Hackfest + CODE competition,60+,Open Data Ottawa
"Ouagadougou, burkina Faso",portugalportugal,12.35413,-1.52169,"Talks, Roundtables, WorkShops",30+,Open Knowledge Burkina Faso
"Panama City, Panama",,8.974,-79.519,"Intro to open data, keynote, ideation, some dev, networking",~25,Open Knowledge Panama Community
"Panama City, Panama",www.datosabiertospa.github.io,8.974,-79.519,"Conferencia de Datos Abiertos, Networking,Hackaton, Licenciaton. ",50-100,"Instituto Panameño de Derecho y Nuevas Tecnologías (IPANDETEC), Mozila Panamá, Creative Commons Panamá, Floss-PA., Fedora Panamá, Fundación Fraternidad del Software Libre de Panamá."
"Papeete, Tahiti",https://www.facebook.com/events/936955629731617/,-17.54,-149.567,Hackathon,20,Math's Up Moorea
"Paris, France",https://www.eventbrite.fr/e/billets-open-data-day-2015-paris-15665893108,48.8528223,2.3527217,Open Environmental Data Workshop,no limits,"<a href=""http://plumelabs.com/"">Plume Labs</a>"
"Perm, Russia",http://perm.te-st.ru,58.01046,56.25017,Open Data hackathon,50-100,Teplitsa of social technologies http://te-st.ru
"Perpignan, France",https://www.facebook.com/events/681397855303031/,42.6999297,2.8945504,Open Discussion,20,"OpenPI, Open Food Facts"
"Philadelphia, PA",http://www.meetup.com/geophilly/events/219834144,39.953437,-75.19794,Speaker presentaitosn featuring talks on open source and open data for data analysis.,"100, w/ live stream","GeoPhilly, DataPhilly"
"Phnom Penh, Cambodia",https://www.facebook.com/events/854453584612339,11.52702,104.916316,Presentations/Talks/Workshop/Conference,,"Destination Justice, OKFnKH & Open Development Cambodia"
"Porto Alegre, Brasil",http://wiki.opendataday.org/PORTOALEGRE2015,-30.033056,-51.23,Hackathon using open data,~30,"MateHackers, CCDPOA"
"Porto, Portugal",http://transparenciahackday.org,41.162142,-8.621953,"Workshop, Talks",~40,Transparência Hackday Portugal
"Prague, Czech Republic",http://www.nasstat.cz/aktualni-deni/oslavte-s-nami-mezinarodni-den-otevrenych-dat/,50.098852,14.436825,Data Subotnik 1) a microhackathon focused on data problems NGOs need to solve + 2) editing Prague's Open Data Census,~25,Otakar Motejl Fund (Open Knowledge CZ)
"Prishtina, Republic of Kosovo",http://opendatakosovo.org/,42.6672617,21.1587273,"Ideathon, Datathon, Hackathon, and Macchiatos.",30,Open Data Kosovo
Provincia di Sassari,http://www.provincia.sassari.it/it/eventview.wp?contentId=EVN115925,40.7219838,8.5913335,Conferences on open data and civic monitoring for Eu fund expenditures,250,"Europe Direct Provincia di Sassari, Liceo Gramsci Olbia, Liceo Fermi Alghero, ISS Roth Alghero, Liceo Scientifico Lu Bagnu, ITCG Deffenu Olbia. "
"Puerto Rico, San Juan",http://code4puertorico.org/,18.465424,-66.117012,Unconference & Hackathon,20,Code 4 Puerto Rico Brigade
"Quito, Ecuador",http://bit.ly/ODDUio16,-0.22985,-78.52495,Open Data Festival,100,School of Data / MediaLAB Uio
"Quito, Ecuador",http://goo.gl/W3Z4g3.,-0.2228,-78.508,OpenStreetMap Ecuador: Cómo y por qué se creó el mejor Mapa Libre del Mundo.,sin limite,Comunidad de Software Libre y Seguridad informática Hackem
"Reading, PA",https://2015readingopendataday.eventbrite.com,40.341667,-75.926389,Open data policy and platform launch,~20,"City of Reading, PA"
Reggio Calabria,http://wiki.opendataday.org/ReggioCalabria15,38.6414,15.394356,Workshop and Opentalk,150,Monithon Calabria
"Richmond, Virginia",https://www.eventbrite.com/e/codeacross-rva-tickets-15303525256,37.570219,-77.468632,CodeAcross,50,Code for RVA
"Rio de Janeiro, Brazil",https://www.facebook.com/Centro-de-Refer%C3%AAncia-em-Intelig%C3%AAncia-Empresarial-Crie-1485633275000890/,-22.910439,-43.209477,ODI Rio Presentation + Ideathon,50,ODI Rio & Crie - Reference Center for Corporate Intelligence (Federal University of Rio de Janeiro)
"Sabae, Japan",http://www.city.sabae.fukui.jp/pageview.html?id=15984,35.945398,136.183004,Ideathon,,"Code For Sabae，Code For Fukui, Sabae-city"
"Saga,Japan",http://code4saga.org/,33.181783,129.880671,"Workshops,
Ideathon",30,Code for Saga
"Saitama, Japan",https://www.facebook.com/events/1417686135190359/,35.907798,139.624821,Hackathon,,Code for Saitama
"Sakai, Japan",https://www.facebook.com/events/1586873188222727/,34.558669,135.48237,Mapping,,Code for Sakai
"Salerno, Italy",http://www.dirittodiaccessocivico.it/,40.770906,14.79776,Open Data Day and Data Journalism,250,University od Salerno
"San Francisco, Ca, USA",http://www.meetup.com/Code-for-San-Francisco-Civic-Hack-Night/events/219705688/,37.7756408,-122.4136494,"Hackathon, Workshops, Unconference",50-100,Code for San Francisco
"San José, Costa Rica",http://abriendodatoscostarica.org/2015/02/19/el-dia-de-los-datos-abiertos-sera-la-oportunidad-para-reencontrarnos/,9.938702,-84.068061,Segundo encuentro de DaTic@s,20,http://abriendodatoscostarica.org/
"São Carlos, SP, Brasil",https://www.facebook.com/events/1036929276324312/?ref_dashboard_filter=upcoming&source=1&sid_create=3383795839,-22.007168,-47.907711,Panel discussion (Mesa Redonda),~10,Danilo Oliveira - SigaLei
"São Paulo, Brazil",https://www.facebook.com/events/1549107072038957/,-23.5272608,-46.6294958,Initial panel and parallel workshops. Likely themes: water supply and transportation,no limits,"Transparência Hacker Community, POLIGNU (Free Software Studies Group), CGM (Controladoria Geral do Município de São Paulo)"
"Sapporo, Japan",http://codeforsapporo.doorkeeper.jp/events/20693,43.063141,141.35775,"Hackathon, Datathon, Ideathon",~30,Code for Sapporo
"Seattle, WA, USA",http://www.meetup.com/Code-for-Seattle/events/220166485/,47.6531934,-122.3057073,Unconference,60,Code for Seattle http://codeforseattle.org/
"Sendai, Japan",http://tohoku-dev.jp/modules/eguide/event.php?eid=280,38.262879,140.872784,Conference,85,Tohoku developpers community
"Sendai2, Japan",,38.268215,140.869356,,,Code for SENDAI
"Shiga, Japan",http://opendata.shiga.jp/iodd2015/,35.006858,135.877148,"Workshops, Hacking",~50,Code for Shiga / Biwako
"Skopje, Macedonia",http://metamorphosis.org.mk/en/aktivnosti/odbelezhuvanje-na-denot-na-otvorenite-podatoci-2/,42,21.4333,Open Data Day Skopje 2015,50+,Metamorphosis Foundation
"Sofia, Bulgaria",https://www.facebook.com/events/643834369076401/,42.69751,23.32415,"Hackathon on open data topics related to the parliamentary activities, e-Government, energetics and other areas. Possible participation of representatives of the public administration. There are also small prizes.",more than 30,Obshtestvo.bg
"St. Louis, Missouri",http://opendatastl.org/,38.627222,-90.197778,Build for STL,,OpenDataSTL
"St.Petersburg, Russia",https://exchang.es/e/miezhdunarodnyi-dien-otkrytykh-dannykh-21-fievralia,59.935795,30.350761,"Data is game changer. Let's play! Games, drink up and fun.",10+,Open City Foundation
"Stockholm, Sweden",http://www.vinnova.se/sv/Aktuellt--publicerat/Kalendarium/2015/150220-forum-oppna-data7/,59.332653,18.060965,Discussion on Noridic open data week,40,Swedish innovation agency (VINNOVA)
"Stockholm, Sweden",http://www.opennordics.org/open-data-day-afterwork-stockholm/,59.3327653,18.0581755,"(Venue: Belgobaren http://www.belgobaren.se/) 

Welcome to AW with an open data meet-up friday the 20th of february 2015. 

Mingle with the most engaged ""openness people"" in Stockholm! 

Enjoy the evening and network with likeminded people with various backgrounds. 

Together we will get an early start to Open Data Day 2015! ",,"
Event organisers are .SE, Open Knowledge Sweden, Wikimedia Sverige, VINNOVA

Supporters are Creative Commons Sweden"
"Suzaka, Japan",,36.654809,138.308631,"Ideathon, Workshops",~30,Association for Future's Informatization of Suzaka City
"Sydney, Australia",http://www.codeforaustralia.org,-33.8677,151.2089,Workshop,50,Code for Australia
"Takaoka, Japan",https://www.facebook.com/events/855396464503918/,36.741273,137.015386,Hackathon,20,CodeForTAKAOKA
"Tama, Japan",https://www.facebook.com/groups/odcafe.tama/,35.630514,139.464281,"Keynote, Ideathon",70,OpenDataCafe@TAMA
"Tanba, Japan",,35.1771,135.035854,,,Open Data @ Tanba executive committee
"Tel Aviv, Israel",http://www.hasadna.org.il/en/,0,34.788663,Hacking the elections,100,The Public Knowledge Workshop
"Teresina, Piauí, Brazil",http://teresinahc.org/open-data-day,-5.0884,-42.80999,Hackaton,~15,Teresina Hacker Clube
Termoli Italy,https://m.facebook.com/dangerouswater/,,,Open data get together and workshop,160,Team A scuola di open coesione Dangerous water_no grazie
"Tirana, Albania",http://open.data.al/sq/,41.3279457,19.8185323,Workshop OpenCorporates Albania,~50,Albanian Institute of Science / Open Data Albania
"Tokushima, Japan",http://www.tokushima-oss.org/docs/2015012900017/,34.053314,134.560704,Ideathon,30,"Code for Tokushima preparatory committee
"
"Tokyo, Japan",http://codefor.tokyo/,35.681384,139.767294,Ideathon & workshop,60,Code for Tokyo
"Tokyo, Japan",http://www.opencorporates.jp/,35.68944,139.69167,Ideathon,100,Open Corporates Japan
"Toranomon, Japan",http://odd15.okfn.jp/kosodatetown/,35.667584,139.747094,Data Hackathon,,Askoe partners
"Toronto, Ontario, Canada","http://wiki.opendataday.org/Toronto,_Ontario",43.6638,79.3944,"Conference style, Friday, Saturday, and Sunday",200-300,"Citizens, Gov of Ontario, Gov of Toronto"
"Tottori, Japan",http://www.pref.tottori.lg.jp/224203.htm,35.497016,134.228989,Ideathon,30,"Tottori Univ., Code for tottori"
"Toyota, Japan",,35.138071,136.965865,,,Chukyo Univ.
"Torino, Italy",www.facebook.com/events/242360432895708/,,,Open data promotion,50-100,Team A scuola di open coesione GBtoccabarriera
"Trento, Italy",http://www.innovazione.provincia.tn.it/eventi/pagina68.html,46.0664228,11.1257601,Open Data and re-use,40+,Open Data in Trentino Project http:\\dati.trentino.it
"Triangle Region, North Carolina, USA",http://triangleopendataday.org,35.772057,-78.674108,"Hackathon, Workshops, Mentoring",300,"Technology Tank, LLC"
"Tulsa, Oklahoma",http://www.eventbrite.com/e/tulsa-codeacross-2015-tickets-15769256270,36.15853,-95.99222,"Open Data, CodeAcross",50,"Code for Tulsa
"
"Tunis, Tunisia","http://www.elfabrika.tn
https://www.facebook.com/elfabrika",36.81897,10.16579,"talks, rounbtables, workshops",20 - 30,El Fabrika
"Ueda, Japan",http://www.nagano.ac.jp/news/2015-0221/index.html,36.369155,138.223143,"Seminar, Workshop",50,Nagano University
"Ulm, Germany",http://www.meetup.com/datalove-OK-Lab-Ulm/events/220419769/,48.42284,9.957067,Hackday,,datalove and Code for Ulm
"Valencia, Spain",http://www.datasea.es/dt/,7.9064,125.0942,,,Datasea
"Valencia, Spain",http://www.datasea.es/dt/,39.466667°,-0.375,Vídeos sobre los resultados del proyecto de datos de investigación,Sin limite,DATASEA
"Valparaíso, Chile",http://ciudadanointeligente.org,-33.045485,-71.612067,Open Data Promotion,no limit,Fundación Ciudadano Inteligente
"Vancouver, Canada",http://www.meetup.com/net2van/events/219744776/,0,-123.108271,Open Data for Nonprofits,75,NetSquared Vancouver & Open Data BC
"Vancouver, Canada",http://www.meetup.com/OpenDataBC-Vancouver/events/219604434/,0,-123.108271,{CODE} 2015 Vancouver Road Show Stop,100,CODE 2015 & OpenDataBC
"Vancouver, Canada",http://urbanopus.net/smart-city-hackathon/,49.267433,-123.090321,Smart City Hackathon,~50,Urban Opus (urbanopus.net)
"Victoria, British Columbia, Canada",http://www.meetup.com/OpenDataBC/events/220545979/,48.4243467,-123.363234,Open Data Day Code Hackathon,,http://www.opengovgear.com/
Vienna,http://okfn.at/2015/02/01/21-februar-open-data-day/,48.203337,16.358617,Hackathon,20,Open Knowledge Austria
Vienna,http://wiki.opendataday.org/Vienna2016,48.203337,16.358617,Hackathon,20,"Open Knowledge Austria, School of Data - Austria"
Vienna,http://odd15-vienna.eventbrite.com,48.3,16.4,Bulding a Data Sensor Box,20,"School of Data - Austria, Transformer, Vienna Open"
"Vila Velha, ES, Brasil",http://ccdvv.com.br/eventos/open-data-day,-20.3656802,-40.3196228,Hackathon,,"Gustavo RPS, Eduardo Lucas"
"Vilnius, Trakai",http://www.startuplithuania.lt/en/events/open-data-fest-2015?login_form&save_event=780,54.6893865,25.2800243,Hackathon,100,Public Institution Enterprise Lithuania
Virtual - Online,"http://nonprofitcommons.org
",0,0,"Intro to Open Data, presentation, workshop",30 +,"Caravan Studios, Nonprofit Commons"
"Wakayama, Japan",http://wida.jp/2015/02/13/iodd2015inwakayama/,33.696215,135.395652,Mapping party,60,Code for Wakayama
Washington DC,http://dc.opendataday.org/,38.89778,-77.04394,"Workshops, Hacking",,
"Winchester, Hampshire, United Kingdom",http://www.odcamp.org.uk,51.064639,1.319139,"Unconference, networking, maker space",~150,http://odcamp.org.uk/contact-us/
"Windhoek, Namibia",,-22.566,17.075,"Talks, Hackathon",100,"1 Billion Africa, SAIS, NBII"
"Wuppertal, Germany",http://opendatal.de/2015/open-data-day-2015/,51.266846,7.145373,Hackday,,Opendatal
"Xalapa, Veracruz",,19.51998,-96.905149,"Data Expedition, panel & meet up",40,"H. Ayuntamiento de Xalapa, Gobierno del Estado de Veracruz, Universidad Veracruzana, iLab, Social TIC"
yaounde cameroon,http://www.meetup.com/NetSquared-Yaounde-Technology-for-Social-Change/events/220180203/," 3°57'52.92"""," 11°35'16.8"" ",sensitizing the student and public on the importance of open data to education and how to use  data to work for your non-profit organization ,5000,NetSquared Yaoundé: Technology for Social Change
Yokohama,http://yokohamaopendata.jp,35.45176,139.647756,"Workshops, Panels and a Party",,Yokohama IODD2015 Committee
"Yokosuka, Japan",https://atnd.org/events/62436,35.28516,139.674348,Ideathon,,YRP
"Zagreb, Croatia",http://about.codeforcroatia.org/codeacross,45.8132546,15.9728706,"Panel, Workshop, Hackathon",~100,"Code for Croatia, Open Zagreb, GONG, OGP"
,,42.3579158,140.9865738,"Workshops,
Ideathon",10-20,Code for IBURI